[
  {
    "id": "1",
    "name": "Peter Uittenbroek",
    "content": "We zouden graag iemand vinden die onze hond 3x per week uit kan laten.",
    "date": "2020-10-04 23:33:22",
    "location": "Venlo",
    "address" : "Beethovenstraat 14, 5914 BN Venlo.",
    "phonenumber" : "0627305326",
    "general" : "We kunnen redelijk flexibel in de avonduren inplannen.",
    "dograce" : "Straathond. Tekkelachtig.",
    "picture" : "peteruittenbroek.jpg"
  },
  {
    "id": "2",
    "name": "Mia Jacobs",
    "content": "We zouden graag iemand vinden die onze hond 3x per week uit kan laten.",
    "date": "2020-01-28 07:50:06",
    "location": "Velden",
    "address" : "Beethovenstraat 14, 5911 AA Velden.",
    "phone" : "0627305326",
    "general" : "Matig. Weinig tijdkeus. Vriendelijk.",
    "dograce" : "Labrador",
    "picture" : "miajacobs.jpg"
  },
  {
    "id": "3",
    "name": "Desiree Bouten",
    "content": "We zouden graag iemand vinden die onze hond 3x per week uit kan laten.",
    "date": "2021-11-03 13:43:01",
    "location": "Baarlo",
    "address" : "Beethovenstraat 14, 5911 RR Baarlo.",
    "phone" : "0627305326",
    "general" : "Redelijk. Wat zakelijk. Punctueel.",
    "dograce" : "Pincher",
    "picture" : "desireebouten.jpg"
  },
  {
    "id": "4",
    "name": "Gerard Peeters",
    "content": "We zouden graag iemand vinden die onze hond 3x per week uit kan laten.",
    "date": "2021-06-23 00:48:31",
    "location": "Tegelen",
    "address" : "Beethovenstraat 14, 5912 GG Tegelen.",
    "phone" : "0627305326",
    "general" : "Goed. Flexibel. Kort en zakelijk.",
    "dograce" : "Labrador",
    "picture" : "janpeeters.jpg"
  },
  {
    "id": "5",
    "name": "Lutegarda Vasconcelos",
    "content": "We zouden graag iemand vinden die onze hond 3x per week uit kan laten.",
    "date": "2020-03-25 16:18:31",
    "location": "Blerick",
    "address" : "Beethovenstraat 14, 5913 AA Blerick.",
    "phone" : "0627305326",
    "general" : "Goed. Erg punctueel. Vriendelijk.",
    "dograce" : "Chihuaha",
    "picture" : "lutegardavasconcelos.jpg"
  },
  {
    "id": "6",
    "name": "Jacob Pietersen",
    "content": "We zouden graag iemand vinden die onze hond 3x per week uit kan laten.",
    "date": "2020-03-13 12:47:13",
    "location": "Maasbree",
    "address" : "Beethovenstraat 14, 5914 DD  Maasbree.",
    "phone" : "0627305326",
    "general" : "Matig. Soms laat. Leuke mensen.",
    "dograce" : "Duitse Herder",
    "picture" : "jacobpietersen.jpg"
  }
]